City,Lat,Lng,Max Temp,Humidity,Cloudiness,Wind Speed,Country,Date
tura,25.5198,90.2201,21.18,57,0,1.61,IN,1682368670
altai,46.3722,96.2583,0.71,24,98,1.51,MN,1682368991
sitka,57.0531,-135.33,3.94,81,100,5.14,US,1682368767
grytviken,-54.2811,-36.5092,2.19,93,61,5.52,GS,1682368665
iqaluit,63.7506,-68.5145,0.85,93,100,2.57,CA,1682368688
mili,6.0815,171.735,28.05,81,97,8.89,MH,1682368689
ebon,4.582,168.6964,28.1,79,100,7.2,MH,1682368660
iskateley,67.6803,53.1512,-7.72,95,100,1.83,RU,1682368774
port lincoln,-34.7333,135.8667,18.37,56,49,2.66,AU,1682368422
punta arenas,-53.15,-70.9167,7.06,93,100,3.6,CL,1682368690
kushiro,42.975,144.3747,3.8,70,0,5.02,JP,1682368993
vorgashor,67.5833,63.95,-6.14,90,100,4.17,RU,1682368818
albany,42.6001,-73.9662,11.92,55,88,0.45,US,1682368557
blackmans bay,-43.0167,147.3167,10.39,89,100,2.56,AU,1682368666
akureyri,65.6835,-18.0878,0.96,64,75,6.17,IS,1682368994
shortandy,51.7006,70.9994,6.4,63,39,2.47,KZ,1682368994
west island,-12.1568,96.8225,26.99,74,100,9.77,CC,1682368684
ketchikan,55.3422,-131.6461,8.26,71,100,7.2,US,1682368494
bethel,41.3712,-73.414,15.2,41,75,4.12,US,1682368669
puerto natales,-51.7236,-72.4875,13.25,62,75,2.06,CL,1682368662
isafjordur,66.0755,-23.124,-0.47,67,88,4.42,IS,1682368693
nemuro,43.3236,145.575,3.24,73,22,7.93,JP,1682368660
georgetown,5.4112,100.3354,25.96,94,20,0.0,MY,1682368348
ushuaia,-54.8,-68.3,4.81,81,100,0.51,AR,1682368641
dunedin,-45.8742,170.5036,13.93,10,87,7.96,NZ,1682368996
xilin hot,43.9667,116.0333,-0.67,54,100,10.06,CN,1682368996
thompson,55.7435,-97.8558,5.09,38,20,0.0,CA,1682368661
china,25.7,-99.2333,18.99,74,100,3.31,MX,1682368775
nadvoitsy,63.8667,34.3167,-2.08,93,99,3.17,RU,1682368997
berovo,41.7031,22.8578,8.66,99,100,2.69,MK,1682368997
udachny,66.4167,112.4,-14.47,100,99,1.8,RU,1682368754
qamdo,31.1667,97.2333,-3.99,32,61,1.79,CN,1682368675
crane,31.3974,-102.3501,19.8,46,53,6.78,US,1682368707
stanley,54.868,-1.6985,3.21,76,11,3.13,GB,1682368664
garissa,-0.4536,39.6401,26.8,77,88,5.9,KE,1682368998
jamestown,42.097,-79.2353,6.77,69,100,6.69,US,1682368658
waitangi,-43.9535,-176.5597,10.46,73,86,0.89,NZ,1682368663
untergriesbach,48.5743,13.6673,7.38,86,100,3.13,DE,1682368998
dade city,28.3647,-82.1959,25.03,81,100,2.57,US,1682368999
bredasdorp,-34.5322,20.0403,15.87,78,0,3.68,ZA,1682368669
cockburn town,21.4612,-71.1419,25.52,72,15,3.87,TC,1682368604
port-aux-francais,-49.35,70.2167,4.33,64,45,8.03,TF,1682368667
richards bay,-28.783,32.0377,22.15,74,100,5.08,ZA,1682369000
edinburgh of the seven seas,-37.0676,-12.3116,15.71,66,89,9.1,SH,1682368675
wangqing,43.3218,129.7634,4.16,38,100,1.53,CN,1682369000
haiku-pauwela,20.9219,-156.3051,27.01,62,40,1.54,US,1682368705
timizart,36.8,4.2667,14.94,61,2,1.8,DZ,1682369001
arkalyk,50.2486,66.9114,10.15,50,4,1.03,KZ,1682369001
newman,37.3138,-121.0208,26.24,36,17,2.24,US,1682369001
as salt,32.0392,35.7272,14.6,56,48,0.91,JO,1682369002
papao,-17.75,-149.55,28.82,83,95,5.76,PF,1682368796
utrik,11.2278,169.8474,26.94,82,93,9.85,MH,1682368665
katsuura,35.1333,140.3,13.25,59,68,4.64,JP,1682368676
saipan,15.1355,145.701,27.39,100,75,7.2,MP,1682368780
klyuchi,52.2667,79.1667,5.07,63,29,4.62,RU,1682368685
kidal,18.4411,1.4078,30.62,9,0,3.5,ML,1682369003
yellowknife,62.456,-114.3525,9.29,43,75,2.57,CA,1682368627
kourou,5.1552,-52.6478,25.03,94,100,2.93,GF,1682369003
avarua,-21.2078,-159.775,24.94,65,25,6.53,CK,1682368668
dunay,42.8803,132.3375,4.3,79,100,5.07,RU,1682369004
wailua homesteads,22.0669,-159.378,25.24,82,0,3.09,US,1682368686
zemio,5.0314,25.1361,23.86,64,42,1.18,CF,1682368726
ribeira grande,38.5167,-28.7,17.65,94,20,5.36,PT,1682368667
kailua-kona,19.6406,-155.9956,27.38,74,0,3.6,US,1682368791
mayma,52.0197,85.9114,7.88,84,86,5.28,RU,1682369005
bonny,4.4522,7.1681,28.46,79,62,5.72,NG,1682369005
selfoss,63.9331,-20.9971,3.36,61,100,3.32,IS,1682368744
carnarvon,-24.8667,113.6333,19.33,66,95,6.07,AU,1682368653
verkhnevilyuysk,63.4453,120.3167,-5.76,94,100,3.21,RU,1682369005
markovo,57.3206,107.0881,-3.72,97,100,0.93,RU,1682369006
mantua,45.1667,10.7833,15.58,80,57,2.68,IT,1682369006
moree,-29.4667,149.85,14.81,76,0,3.72,AU,1682369006
tukrah,32.5341,20.5791,16.35,86,0,4.86,LY,1682369006
tangara,-6.1994,-35.8017,26.0,73,83,3.36,BR,1682369007
sevastopol,44.6,33.5333,8.33,60,4,1.38,UA,1682369007
arraial do cabo,-22.9661,-42.0278,23.98,64,40,2.57,BR,1682368765
saint-francois,46.4154,3.9054,10.69,71,0,1.03,FR,1682369008
mount gambier,-37.8333,140.7667,13.53,75,65,2.93,AU,1682368704
kabompo,-13.5927,24.2008,19.12,62,39,2.22,ZM,1682369008
college,64.8569,-147.8028,-6.06,50,75,6.69,US,1682368668
tiksi,71.6872,128.8694,-5.67,96,100,5.48,RU,1682368667
constantia,44.1833,28.65,8.38,84,100,5.84,RO,1682368497
adamstown,-25.066,-130.1015,25.37,87,99,5.62,PN,1682368509
lihue,21.9789,-159.3672,25.58,83,0,3.09,US,1682368617
invercargill,-46.4,168.35,11.68,82,90,0.89,NZ,1682368603
ta`u,-14.2336,-169.5144,27.4,78,32,4.18,AS,1682368783
luba,3.4568,8.5547,25.94,79,47,3.39,GQ,1682369010
la passe,45.5549,-0.8967,12.13,89,100,1.4,FR,1682368701
nova xavantina,-14.6667,-52.35,25.33,76,11,1.51,BR,1682369010
fale old settlement,-9.3852,-171.2468,28.8,73,62,3.71,TK,1682368690
de aar,-30.6497,24.0123,15.83,22,37,2.71,ZA,1682369011
micheweni,-4.9667,39.8333,26.71,85,41,3.8,TZ,1682369011
smolyan,41.5853,24.6919,6.6,98,99,1.85,BG,1682369011
sinabang,2.4803,96.3801,26.89,81,100,0.76,ID,1682368678
qaqortoq,60.7167,-46.0333,2.53,81,22,3.32,GL,1682368695
pyt-yakh,60.7499,72.8582,-3.63,85,7,3.89,RU,1682369012
enewetak,11.3474,162.3373,26.14,86,100,7.91,MH,1682368684
imperatriz,-5.5264,-47.4917,32.03,55,20,2.57,BR,1682369012
fada,9.5667,8.3,24.83,46,95,1.49,NG,1682368753
alpena,45.0617,-83.4327,7.18,53,40,4.47,US,1682369013
hawaiian paradise park,19.5933,-154.9731,28.18,72,75,2.57,US,1682368665
port elizabeth,-33.918,25.5701,20.61,86,100,5.66,ZA,1682368510
east london,-33.0153,27.9116,21.2,87,100,3.31,ZA,1682368423
saint-philippe,-21.3585,55.7679,25.77,79,49,2.88,RE,1682368672
plastun,44.7561,136.2939,2.77,44,62,2.54,RU,1682368800
iquique,-20.2208,-70.1431,23.02,75,3,4.12,CL,1682368844
whitehorse,60.7161,-135.0538,4.43,80,75,6.71,CA,1682368300
ad dilam,23.9915,47.1627,30.23,33,56,4.32,SA,1682369015
mazamari,-11.3258,-74.5308,27.14,73,97,0.53,PE,1682369015
margaret river,-33.95,115.0667,12.91,78,100,7.69,AU,1682368672
bardai,11.65,7.2333,28.87,30,100,1.99,NG,1682369015
puerto baquerizo moreno,-0.9,-89.6,28.55,74,40,4.12,EC,1682368802
bilibino,68.0546,166.4372,-7.54,63,1,1.49,RU,1682368663
alofi,-19.0595,-169.9187,24.94,88,75,2.57,NU,1682369017
novyy urengoy,66.0833,76.6333,-4.37,93,93,6.47,RU,1682368736
bayanhongor,46.7167,100.1167,-4.62,56,61,1.68,MN,1682368673
vilyuysk,63.7553,121.6247,-5.85,92,100,3.81,RU,1682368787
okhotsk,59.3833,143.3,-1.89,80,100,3.63,RU,1682368793
flekkefjord,58.2971,6.6607,9.41,88,76,2.24,NO,1682369018
port mathurin,-19.6833,63.4167,25.99,84,100,8.86,MU,1682368668
rexburg,43.826,-111.7897,9.99,64,100,5.14,US,1682368795
usogorsk,63.4106,48.6872,6.53,90,66,5.15,RU,1682369019
olonkinbyen,70.9221,-8.7187,-3.97,80,90,7.9,SJ,1682368674
lompoc,34.6391,-120.4579,24.83,62,20,7.72,US,1682368661
daru,-9.0763,143.2092,26.59,89,100,5.2,PG,1682369020
jutai,-5.1833,-68.9,24.09,96,96,2.83,BR,1682369020
aasiaat,68.7098,-52.8699,-0.29,93,92,2.52,GL,1682368695
chonchi,-42.6128,-73.8092,12.84,76,100,1.94,CL,1682368675
susuman,62.7833,148.1667,-6.4,91,99,2.59,RU,1682368716
bushehr,28.9684,50.8385,27.05,34,0,3.09,IR,1682369021
smithers,54.7804,-127.1743,11.18,37,40,6.17,CA,1682368425
molde,62.7375,7.1591,3.17,75,75,3.6,NO,1682369021
saldanha,-33.0117,17.9442,15.91,93,14,2.23,ZA,1682368470
gornopravdinsk,60.05,69.9,-2.45,83,92,1.77,RU,1682368859
egilsstadir,65.2653,-14.3948,-1.05,69,75,6.69,IS,1682368692
nabire,-3.3667,135.4833,24.15,92,34,1.32,ID,1682369022
noumea,-22.2763,166.4572,25.56,99,99,5.81,NC,1682368699
chibougamau,49.9168,-74.3659,3.79,93,100,4.63,CA,1682368761
naze,28.3667,129.4833,19.51,81,97,6.99,JP,1682368798
banyo,6.75,11.8167,20.84,82,87,1.87,CM,1682368796
mombetsu,44.3525,143.3525,4.96,56,17,6.64,JP,1682369023
rapla,59.0072,24.7928,7.72,88,98,3.77,EE,1682369023
dudinka,69.4058,86.1778,2.57,80,100,7.56,RU,1682368668
akdepe,42.0551,59.3788,21.05,24,14,7.43,TM,1682369023
pangoa,-12.1167,-73.0,26.31,70,72,1.09,PE,1682368806
oleshky,46.6249,32.7251,10.03,68,28,3.04,UA,1682369024
macapa,0.0389,-51.0664,28.99,74,40,5.14,BR,1682369024
hithadhoo,-0.6,73.0833,28.92,75,99,3.94,MV,1682368668
rabo de peixe,37.8,-25.5833,16.73,100,75,2.57,PT,1682369024
afaahiti,-17.75,-149.2833,27.93,82,86,5.17,PF,1682368661
puerto ayora,-0.7393,-90.3518,29.98,86,94,4.47,EC,1682368641
fortaleza,-3.7227,-38.5247,29.07,70,20,6.17,BR,1682369025
broome,42.2506,-75.833,10.95,65,100,4.02,US,1682368645
namibe,-15.1961,12.1522,23.92,68,20,2.74,AO,1682368678
borovskoy,53.8,64.15,12.17,49,96,2.58,KZ,1682369025
waingapu,-9.6567,120.2641,25.17,85,16,3.16,ID,1682369025
farafangana,-22.8167,47.8333,22.84,83,0,2.89,MG,1682369026
tsiombe,-25.3,45.4833,19.62,88,0,2.07,MG,1682368785
walvis bay,-22.9575,14.5053,24.53,50,0,3.09,NA,1682368744
puerto santa,-8.9906,-78.6456,25.35,78,80,6.25,PE,1682369026
pandan,14.0453,124.1694,25.56,79,57,3.97,PH,1682369026
severo-yeniseyskiy,60.3725,93.0408,-1.43,98,99,1.74,RU,1682368750
magadan,59.5667,150.8,1.41,75,100,7.96,RU,1682369027
hamilton,39.1834,-84.5333,11.66,43,75,3.6,US,1682368400
narsimhapur,22.95,79.2,25.05,43,65,4.41,IN,1682369028
tolanaro,-25.0319,46.9987,23.04,83,75,2.06,MG,1682368718
st. john's,47.5649,-52.7093,2.93,95,100,8.23,CA,1682368772
pingliang,35.5392,106.6861,6.07,65,1,2.79,CN,1682369028
kolonia town,6.964,158.206,27.0,83,100,2.06,FM,1682369028
hadibu,12.65,54.0333,27.87,70,9,0.99,YE,1682368676
timimoun,29.2639,0.231,27.69,14,0,4.29,DZ,1682369029
santa cruz,-17.8,-63.1667,29.7,58,40,3.6,BO,1682369029
kerouane,9.2667,-9.0167,29.14,37,87,1.18,GN,1682369029
kodiak,57.79,-152.4072,5.73,36,0,5.14,US,1682368675
kissidougou,9.1848,-10.0999,28.45,54,91,3.78,GN,1682369030
banda aceh,5.5577,95.3222,26.83,79,100,2.19,ID,1682368665
kwale,5.7063,6.4374,27.01,82,87,1.55,NG,1682369030
novaya igirma,57.1334,103.9112,-4.88,95,90,1.17,RU,1682369030
colonia,50.9333,6.95,9.98,73,20,2.06,DE,1682368510
hermanus,-34.4187,19.2345,13.22,87,0,4.45,ZA,1682368658
puerto aysen,-45.4,-72.7,13.02,71,75,3.09,CL,1682369031
petropavlovsk-kamchatsky,53.0452,158.6483,1.33,60,75,1.0,RU,1682368712
kapuskasing,49.4169,-82.4331,0.05,80,100,5.14,CA,1682368835
anadyr,64.75,177.4833,-7.72,66,0,4.0,RU,1682368714
longyearbyen,78.2186,15.6401,-9.09,73,0,4.12,SJ,1682368657
quesnel,52.9999,-122.5029,11.28,58,40,3.6,CA,1682369032
galliano,29.4422,-90.2992,23.33,49,0,4.12,US,1682369032
alice springs,-23.7,133.8833,9.75,93,0,3.22,AU,1682368695
rouyn-noranda,48.2398,-79.0288,4.05,81,100,3.6,CA,1682368993
poronaysk,49.2167,143.1167,2.64,70,77,2.07,RU,1682368744
kiunga,-6.1219,141.2906,21.75,97,89,0.41,PG,1682368786
dwarka,22.2394,68.9678,26.51,79,59,6.56,IN,1682369033
uturoa,-16.7333,-151.4333,26.9,81,23,5.16,PF,1682368694
ilulissat,69.2167,-51.1,1.01,93,20,4.12,GL,1682368692
fort bragg,35.139,-79.006,19.9,37,0,3.09,US,1682369034
ilhabela,-23.7781,-45.3581,21.7,81,0,2.07,BR,1682369034
san rafael,-34.6177,-68.3301,23.58,31,0,4.97,AR,1682369034
kalianget,-7.05,113.9333,26.82,79,95,3.69,ID,1682369035
margate,51.3813,1.3862,7.17,83,100,1.79,GB,1682368750
mathba,22.2855,89.9629,24.88,63,39,1.59,BD,1682369035
bubaque,11.2833,-15.8333,25.72,71,3,6.97,GW,1682368675
vernon,50.2581,-119.2691,14.96,54,100,1.54,CA,1682369036
tazacorte,28.629,-17.9293,19.54,89,40,5.66,ES,1682368763
andrews,32.3187,-102.5457,12.59,76,100,3.6,US,1682369036
acarau,-2.8856,-40.12,25.73,84,81,3.97,BR,1682369036
el alto,-4.2714,-81.2147,27.81,74,91,2.44,PE,1682369037
port hedland,-20.3167,118.5667,24.03,88,97,2.06,AU,1682369037
tarawa,1.419,172.984,29.05,84,20,3.6,KI,1682369037
flying fish cove,-10.4217,105.6791,26.96,79,96,5.95,CX,1682368758
keren,15.7778,38.4581,24.51,38,63,2.78,ER,1682369037
kralendijk,12.15,-68.2667,30.99,62,40,2.06,BQ,1682369038
kerikeri,-35.2268,173.9474,11.62,95,0,1.3,NZ,1682368810
mahibadhoo,3.7833,72.9667,28.45,77,80,1.89,MV,1682369038
papatowai,-46.5619,169.4708,13.68,74,80,10.64,NZ,1682368662
feraoun,36.5604,4.8545,13.66,64,34,0.4,DZ,1682369040
balarampur,23.1167,86.2167,25.52,52,28,0.89,IN,1682369040
hasaki,35.7333,140.8333,9.56,52,58,4.98,JP,1682368811
coahuayana de hidalgo,18.7,-103.6583,31.3,51,47,3.79,MX,1682368756
xinmin,41.9908,122.8253,10.96,55,100,6.89,CN,1682368752
san patricio,28.017,-97.5169,22.97,65,55,4.98,US,1682368641
tralee,52.2704,-9.7026,4.47,80,13,2.62,IE,1682368645
formosa do rio preto,-11.0483,-45.1931,27.6,45,83,1.66,BR,1682369041
road town,18.4167,-64.6167,28.05,69,40,4.12,VG,1682369042
nuku'alofa,-21.1333,-175.2,25.19,83,75,0.51,TO,1682369042
talcahuano,-36.7167,-73.1167,12.82,88,100,2.06,CL,1682368768
geraldton,-28.7667,114.6,14.23,88,100,3.6,AU,1682368654
abadeh,31.1608,52.6506,12.95,44,0,0.0,IR,1682369043
shimoda,34.6667,138.95,10.61,72,60,5.69,JP,1682368719
gunjur,13.2019,-16.7339,24.04,73,0,2.06,GM,1682368719
kingston,17.997,-76.7936,29.58,71,49,2.06,JM,1682368572
brokopondo,4.75,-55.1667,26.2,83,100,4.57,SR,1682369043
axim,4.8699,-2.2405,27.61,82,92,2.79,GH,1682368767
nyala,12.05,24.8833,30.21,30,95,3.59,SD,1682369044
remire-montjoly,4.9167,-52.2667,25.02,88,100,3.09,GF,1682369044
riversdale,18.1659,-76.9642,29.52,63,39,1.61,JM,1682369044
fort st. john,56.2499,-120.8529,2.94,93,100,3.09,CA,1682368666
pimentel,-6.8367,-79.9342,30.16,58,40,4.12,PE,1682369045
xique xique,-10.8217,-42.7311,29.41,41,10,4.84,BR,1682369045
laguna,38.421,-121.4238,26.91,44,0,3.6,US,1682368842
laojunmiao,39.8333,97.7333,5.2,30,0,1.96,CN,1682369046
eregli,37.5133,34.0467,11.65,45,2,0.96,TR,1682368755
coquimbo,-29.9533,-71.3436,17.85,72,0,4.63,CL,1682368719
suzhou,31.3114,120.6181,11.54,69,100,2.0,CN,1682368757
mme-bafumen,6.3333,10.2333,17.99,91,93,1.16,CM,1682369046
joshimath,30.5667,79.5667,8.59,52,100,2.66,IN,1682368780
merizo village,13.2658,144.6691,26.85,94,22,7.58,GU,1682369047
atafu village,-8.5421,-172.5159,29.18,72,100,4.88,TK,1682368711
kirakira,-10.4544,161.9205,26.51,79,95,1.13,SB,1682368672
tal'menka,53.8183,83.5677,5.77,83,100,6.02,RU,1682369048
west mackay,-21.1481,149.1605,22.57,75,91,8.51,AU,1682369048
labrador city,52.9463,-66.9114,9.95,43,0,3.6,CA,1682368482
meru,0.0463,37.6559,16.33,91,73,1.16,KE,1682369048
cole harbour,44.6724,-63.4751,9.66,81,100,7.2,CA,1682369049
tual,-5.6667,132.75,28.18,73,18,1.39,ID,1682368667
lepsy,46.235,78.9456,11.45,64,3,7.61,KZ,1682369049
east end,34.5507,-92.341,19.95,36,4,0.89,US,1682369049
tieling,42.2931,123.8414,11.71,29,100,7.78,CN,1682368753
kribi,2.95,9.9167,27.04,85,100,3.56,CM,1682369050
codrington,-38.2667,141.9667,14.14,77,10,4.5,AU,1682368646
lerwick,60.1545,-1.1494,3.0,62,97,10.08,GB,1682368781
usinsk,65.9939,57.5281,-3.51,93,100,2.65,RU,1682369050
pacific grove,36.6177,-121.9166,21.56,71,0,5.66,US,1682368674
kutum,14.2,24.6667,27.55,32,32,3.8,SD,1682369051
gamba,-2.65,10.0,26.14,84,77,0.69,GA,1682369051
xuddur,4.1213,43.8894,25.47,76,69,5.97,SO,1682369052
as saff,29.5647,31.2811,21.23,47,18,5.8,EG,1682369052
betio village,1.358,172.9211,29.02,78,100,5.92,KI,1682369052
carbonear,47.7332,-53.2148,3.19,90,100,8.2,CA,1682369052
gondar,12.6,37.4667,20.21,35,9,2.72,ET,1682369053
issia,6.4922,-6.5856,25.03,91,100,1.7,CI,1682369053
dawei,14.0833,98.2,25.59,81,30,0.51,MM,1682368673
island harbour,50.724,-1.2758,7.74,91,98,3.58,GB,1682369053
turkeli,41.9476,34.3386,9.88,82,1,1.7,TR,1682369054
igreja,15.0333,-24.3333,21.98,75,1,5.57,CV,1682369054
el calafate,-50.3408,-72.2768,11.05,81,25,4.61,AR,1682368752
dumingag,8.1692,123.3506,23.86,94,63,1.16,PH,1682369054
temiskaming shores,47.4938,-79.7153,4.89,76,100,3.2,CA,1682369055
uchiza,-8.4592,-76.4633,28.22,67,95,1.13,PE,1682369055
melfort,52.8667,-104.6177,8.07,34,100,6.17,CA,1682368801
altay,47.8667,88.1167,7.72,50,100,2.42,CN,1682368680
namdrik,5.5994,168.1028,28.39,78,100,7.21,MH,1682369056
howrah,22.5892,88.3103,23.0,88,20,0.0,IN,1682368779
lambarene,-0.7001,10.2406,25.04,92,100,1.24,GA,1682369056
buka,40.8108,69.1986,17.84,51,24,2.05,UZ,1682369056
sabang,5.8933,95.3214,29.05,74,100,4.82,ID,1682368713
ust'-kut,56.7938,105.7672,-4.31,96,100,1.25,RU,1682369057
cangucu,-31.395,-52.6756,21.56,63,47,3.15,BR,1682369057
tazovsky,67.4667,78.7,-8.68,96,97,3.96,RU,1682368686
mashhad,36.297,59.6062,21.08,37,0,3.09,IR,1682368795
bharthana,26.7571,79.2248,23.08,39,5,2.32,IN,1682369057
benghazi,32.1167,20.0667,17.85,78,1,6.6,LY,1682368698
kijang,35.2442,129.2139,11.85,62,100,6.16,KR,1682369058
arcachon,44.5875,-1.0519,13.03,94,100,0.0,FR,1682369058
nova vicosa,-17.8919,-39.3719,24.84,73,38,5.52,BR,1682369058
suez,29.9737,32.5263,19.32,60,0,4.64,EG,1682368794
kupang,-10.1667,123.5833,24.5,89,6,3.42,ID,1682369059
pontes e lacerda,-15.2261,-59.3353,24.89,92,14,1.69,BR,1682369059
saint-pierre,-21.3393,55.4781,26.43,78,11,2.57,RE,1682368611
ust-nera,64.5667,143.2,-9.78,93,87,3.12,RU,1682368704
nar'yan-mar,67.6713,53.087,-7.62,94,100,1.8,RU,1682368661
thinadhoo,0.5333,72.9333,29.13,73,100,3.94,MV,1682369060
motueka,-41.1333,173.0167,12.28,67,32,2.4,NZ,1682369060
mejit,10.2753,170.8646,27.29,82,99,10.18,MH,1682368792
kibale,0.8,31.0667,16.1,96,100,0.84,UG,1682369060
klaksvik,62.2266,-6.589,1.51,60,100,9.24,FO,1682368647
talakan,50.3167,130.3667,2.13,68,99,1.31,RU,1682369061
cabo san lucas,22.8909,-109.9124,29.61,61,20,4.63,MX,1682368466
polyarnyy,69.1989,33.4478,-7.1,82,7,4.27,RU,1682368717
kuta,-8.7233,115.1723,26.97,88,20,2.68,ID,1682368805
san isidro de curuguaty,-24.5167,-55.7,23.9,74,32,3.44,PY,1682369062
phan rang-thap cham,11.5667,108.9833,24.24,89,65,2.06,VN,1682369062
taksimo,56.3444,114.8794,-6.92,69,97,0.97,RU,1682368848
fonte boa,-2.4959,-66.2662,21.73,98,100,1.9,BR,1682368709
palikir - national government center,6.9248,158.1611,26.41,83,100,2.06,FM,1682368703
cidreira,-30.1811,-50.2056,21.9,82,12,7.63,BR,1682368696
pasto,1.2136,-77.2811,18.09,84,76,2.33,CO,1682368591
petauke,-14.2426,31.3253,16.98,63,26,3.09,ZM,1682369063
wagar,16.1525,36.2032,32.9,31,98,4.7,SD,1682369064
faaborg,55.0951,10.2423,8.0,94,99,10.08,DK,1682369064
bokoro,12.3807,17.0568,29.94,49,87,5.98,TD,1682369064
bemidji,47.4736,-94.8803,7.81,41,100,2.06,US,1682368597
bakchar,57.0186,82.0711,-2.76,76,10,5.86,RU,1682369064
plettenberg bay,-34.0527,23.3716,17.27,91,99,2.78,ZA,1682369065
toledo,39.8333,-4.0,17.53,42,46,3.42,ES,1682368866
porto novo,6.4965,2.6036,28.9,76,100,2.54,BJ,1682368698
shubarshi,48.5872,57.1869,12.88,49,98,4.45,KZ,1682369065
santo antonio,-6.3106,-35.4789,25.42,81,65,4.38,BR,1682369066
talnakh,69.4865,88.3972,2.34,77,87,3.96,RU,1682368397
nyurba,63.2842,118.3319,-9.02,95,100,2.29,RU,1682368708
puerto lopez,4.0845,-72.956,27.11,78,96,2.36,CO,1682369066
goundi,9.3627,17.366,29.4,48,87,2.22,TD,1682369066
gaalkacyo,6.7697,47.4308,27.35,69,59,6.49,SO,1682369067
bagong pagasa,14.6627,121.0328,27.68,74,20,1.54,PH,1682369067
tibiri,13.5627,7.0485,32.65,23,100,3.52,NE,1682369067
diego martin,10.7005,-61.5342,23.97,78,36,3.12,TT,1682369067
fort wellington,6.4,-57.6,26.79,80,73,4.05,GY,1682369068
tutoia,-2.7619,-42.2744,26.65,78,100,3.81,BR,1682368788
nepomuceno,-21.2358,-45.2358,17.9,71,10,0.92,BR,1682369068
tanabe,33.7333,135.3667,10.37,90,100,1.35,JP,1682369068
gadzhiyevo,69.2551,33.3362,-7.72,82,5,4.8,RU,1682368787
quiberon,47.4841,-3.1196,12.26,78,70,7.22,FR,1682369069
taperoa,-7.2075,-36.8267,25.03,66,73,5.3,BR,1682369069
taltal,-25.4,-70.4833,19.4,75,30,3.14,CL,1682368821
murray bridge,-35.1167,139.2667,19.63,63,82,3.45,AU,1682369070
yermakovskoye,53.2831,92.4003,6.62,57,100,1.7,RU,1682369070
al burayqah,30.4062,19.5739,17.9,84,81,6.35,LY,1682369070
floro,61.5996,5.0328,4.02,60,100,7.2,NO,1682368764
port isabel,26.0734,-97.2086,23.35,81,100,6.69,US,1682369071
vilyuchinsk,52.9306,158.4028,2.15,75,40,2.72,RU,1682368671
prado,-17.3411,-39.2208,24.19,78,69,4.65,BR,1682369071
puli,23.9664,120.9695,18.81,92,50,1.05,TW,1682369071
shahriar,35.6596,51.0593,25.16,22,100,2.72,IR,1682369072
nebraska city,40.6767,-95.8592,21.43,26,75,6.69,US,1682369072
lieksa,63.3167,30.0167,0.22,95,100,2.75,FI,1682368670
weno,7.4515,151.8468,26.97,89,100,0.0,FM,1682368670
barra de santo antonio,-9.4047,-35.5072,26.6,85,94,3.08,BR,1682368716
trou du nord,19.6333,-72.0167,27.84,68,41,4.82,HT,1682369073
pama,11.2497,0.7075,32.94,36,99,2.67,BF,1682369073
saint-joseph,-21.3667,55.6167,25.82,77,28,1.83,RE,1682368813
rio gallegos,-51.6226,-69.2181,14.03,62,0,2.57,AR,1682368885
nueva gerona,21.8833,-82.8,29.77,53,78,5.03,CU,1682369074
salalah,17.0151,54.0924,29.05,74,20,2.06,OM,1682368689
hammerfest,70.6634,23.6821,-2.75,93,75,2.06,NO,1682368710
ahar,38.4774,47.0699,13.23,77,100,2.54,IR,1682369074
sao gabriel da cachoeira,-0.1303,-67.0892,22.27,99,100,0.74,BR,1682368811
paracatu,-17.2222,-46.8747,24.63,53,80,2.05,BR,1682368781
kuanda,56.3161,116.0806,-9.3,73,88,1.02,RU,1682368818
pont rouge,48.8833,-72.0825,7.06,88,100,4.78,CA,1682368999
san julian,21.0167,-102.1667,28.69,8,16,8.65,MX,1682369075
boguchany,58.3814,97.4531,0.38,92,100,1.8,RU,1682369075
pocito,-31.6833,-68.5833,23.44,34,0,2.1,AR,1682369076
sakata,38.9167,139.855,5.4,60,53,2.96,JP,1682369076
fenoarivo be,-18.4333,46.5667,16.77,95,0,1.16,MG,1682369076
inirida,3.8653,-67.9239,25.38,86,100,1.46,CO,1682369076
buala,-8.145,159.5921,27.16,83,100,1.1,SB,1682368761
kavaratti,10.5669,72.642,28.18,71,49,3.5,IN,1682368804
lebu,-37.6167,-73.65,13.89,76,42,1.78,CL,1682368639
oranjemund,-28.55,16.4333,15.24,98,72,2.78,NA,1682369077
minas de marcona,-15.2119,-75.1103,19.78,70,4,7.73,PE,1682368780
champerico,14.3,-91.9167,35.3,62,91,7.08,GT,1682369077
masterton,-40.9597,175.6575,9.28,76,2,1.54,NZ,1682368807
buri ram,14.9943,103.1039,28.22,56,98,2.28,TH,1682369078
el granada,37.5027,-122.4694,24.69,65,0,10.8,US,1682369078
palapye,-22.546,27.1251,21.19,55,1,4.47,BW,1682369078
zdvinsk,54.7021,78.661,0.71,58,5,5.51,RU,1682369078
port alfred,-33.5906,26.891,19.54,93,100,1.34,ZA,1682368665
ar ruways,24.1103,52.7306,27.21,51,27,1.9,AE,1682369079
ixtapa,20.7,-105.2,27.57,57,75,5.66,MX,1682369079
ha'il,27.5219,41.6907,18.01,94,0,2.06,SA,1682369079
port augusta,-32.5,137.7667,17.53,51,69,2.02,AU,1682368794
khanty-mansiysk,61.0042,69.0019,-2.94,54,0,2.0,RU,1682369080
burang,30.25,81.1667,-4.55,78,100,1.16,CN,1682369080
chipata,-13.6333,32.65,17.2,77,90,2.13,ZM,1682369080
wanxian,30.8039,108.3897,10.36,94,100,0.51,CN,1682369081
pathein,16.7833,94.7333,27.0,80,3,3.01,MM,1682369081
yeraliyev,43.2,51.65,23.28,22,100,15.78,KZ,1682368881
tefe,-3.3542,-64.7114,24.06,83,75,7.72,BR,1682369081
santana,-0.0583,-51.1817,29.1,74,40,5.14,BR,1682369081
salekhard,66.53,66.6019,-6.73,85,12,5.86,RU,1682368792
bellmere,-27.0875,152.923,19.4,89,72,4.02,AU,1682369082
severnoye,56.3491,78.3619,-0.95,71,6,5.15,RU,1682369082
barcelos,41.5388,-8.6151,16.58,93,87,0.31,PT,1682368569
ola,59.5833,151.2833,1.75,79,100,7.45,RU,1682368685
aromashevo,56.8602,68.6375,3.97,58,100,2.97,RU,1682369083
fortuna,40.5982,-124.1573,15.19,72,98,3.13,US,1682368654
kristiansund,63.1115,7.732,2.36,75,75,5.14,NO,1682369083
bamboo flat,11.7,92.7167,27.84,77,62,0.46,IN,1682369083
sandnessjoen,66.0217,12.6316,1.06,63,0,2.57,NO,1682368743
sirre,8.3167,39.4833,18.48,63,79,4.06,ET,1682369084
point pleasant,40.0832,-74.0682,17.89,52,75,4.12,US,1682369084
tongliao,43.6125,122.2653,12.45,39,100,8.82,CN,1682368778
selkirk,50.1436,-96.8845,7.27,43,64,3.47,CA,1682369084
panaba,21.2833,-88.2667,36.55,30,92,3.33,MX,1682369084
piti village,13.4626,144.6933,27.03,91,0,3.6,GU,1682369085
northam,51.0333,-4.2167,7.56,87,98,3.63,GB,1682369085
arno,60.1167,18.6333,0.99,87,100,4.02,SE,1682369086
karratha,-20.7377,116.8463,25.65,64,100,3.01,AU,1682369086
satuek,15.297,103.2919,28.38,54,76,2.5,TH,1682369086
pedro juan caballero,-22.5472,-55.7333,18.98,94,75,5.14,PY,1682369013
pisco,-13.7,-76.2167,27.03,61,0,10.8,PE,1682368478
balkanabat,39.5108,54.3671,28.38,18,86,11.96,TM,1682369087
merritt,50.1123,-120.7942,9.69,70,90,1.84,CA,1682369087
portland,45.5234,-122.6762,15.37,66,75,3.13,US,1682368517
adrar,20.5022,-10.0711,29.1,12,0,2.92,MR,1682368810
morristown,36.214,-83.2949,16.08,32,0,0.45,US,1682369088
shingu,33.7333,135.9833,11.48,80,100,3.39,JP,1682368683
mukalla,14.5425,49.1242,27.9,70,14,1.56,YE,1682368668
praia da vitoria,38.7333,-27.0667,19.14,77,20,5.55,PT,1682368718
olovyannaya,50.95,115.5667,-3.3,38,5,1.07,RU,1682369088
noosa heads,-26.3833,153.15,19.63,76,39,9.63,AU,1682369089
kununurra,-15.7667,128.7333,19.99,94,5,0.51,AU,1682368678
verneuil-sur-avre,48.7395,0.9273,8.19,94,56,3.52,FR,1682369089
rosarito,32.3333,-117.0333,21.48,68,3,3.73,MX,1682368775
port-vila,-17.7338,168.3219,22.78,100,75,1.03,VU,1682369090
barra do garcas,-15.89,-52.2567,32.32,58,75,1.77,BR,1682369090
atar,20.5169,-13.0499,31.89,12,0,2.91,MR,1682368655
hola,51.5377,23.1902,14.1,86,21,2.91,PL,1682369090
bel ombre,-4.6167,55.4167,28.91,84,40,1.03,SC,1682368662
vranje,42.5514,21.9003,11.66,89,100,2.15,RS,1682369091
scarborough,54.2797,-0.4044,5.92,80,84,1.34,GB,1682368561
trenggalek,-8.05,111.7167,24.13,93,76,0.76,ID,1682369091
progreso,21.2833,-89.6667,35.06,60,100,6.73,MX,1682369091
lazaro cardenas,17.9583,-102.2,28.92,56,25,5.0,MX,1682369092
kenai,60.5544,-151.2583,1.05,59,0,4.63,US,1682368753
quelimane,-17.8786,36.8883,23.97,88,0,0.0,MZ,1682369092
tshikapa,-6.4167,20.8,22.75,93,97,0.41,CD,1682369092
blitar,-8.0983,112.1681,23.1,93,86,0.89,ID,1682369093
el hajeb,33.6879,-5.371,18.98,43,0,0.16,MA,1682369093
aykhal,66.0,111.5,-12.29,100,96,2.36,RU,1682368712
prokhladnyy,43.7574,44.0297,14.43,70,100,3.07,RU,1682369093
gizo,-8.103,156.8419,27.41,78,83,1.44,SB,1682368659
kovel,51.2153,24.7087,8.92,86,11,3.16,UA,1682369094
tofol,5.3248,163.0078,25.47,86,100,3.71,FM,1682369094
rongelap,11.1635,166.8941,26.96,83,100,8.37,MH,1682369094
new plymouth,-39.0667,174.0833,12.4,100,74,7.73,NZ,1682369094
strezhevoy,60.7333,77.5889,-3.46,84,90,6.22,RU,1682368706
yibin,28.7667,104.6238,13.54,74,100,1.17,CN,1682369095
vadso,70.0744,29.7487,-1.51,80,0,4.12,NO,1682368683
inhambane,-23.865,35.3833,22.07,79,9,2.14,MZ,1682368782
mount pearl,47.5166,-52.7813,2.47,95,100,8.23,CA,1682368485
conception bay south,47.4999,-52.9981,2.8,95,100,7.91,CA,1682368874
north shore,-36.8,174.75,12.44,70,11,1.96,NZ,1682369096
shakhun'ya,57.6758,46.6114,10.57,60,11,2.85,RU,1682369096
dakhla,23.6848,-15.958,19.01,82,0,8.23,EH,1682369096
mairena del aljarafe,37.3446,-6.0639,26.68,36,0,3.09,ES,1682369096
tateyama,34.9833,139.8667,13.64,63,48,5.73,JP,1682369096
eydhafushi,5.1033,73.0708,28.97,70,100,2.76,MV,1682369097
amga,60.8953,131.9608,-3.33,95,100,2.45,RU,1682369097
port douglas,-16.4833,145.4667,25.0,84,92,7.48,AU,1682368471
toliara,-23.35,43.6667,21.43,86,0,3.19,MG,1682369097
salinopolis,-0.6136,-47.3561,25.88,85,100,4.65,BR,1682369097
tamanrasset,22.785,5.5228,24.95,10,20,1.03,DZ,1682369096
vershino-darasunskiy,52.35,115.5167,-9.05,64,77,1.15,RU,1682369098
nueva palestina,15.8,-92.75,31.97,39,97,2.93,MX,1682369098
cidade velha,14.9167,-23.6167,23.26,68,20,6.17,CV,1682369098
badger,64.8,-147.5333,-6.11,49,40,6.69,US,1682368710
daura,11.5538,11.4085,29.1,44,88,2.85,NG,1682369098
manismata,-2.4667,111.0333,23.0,99,100,0.39,ID,1682368749
ponta delgada,37.7333,-25.6667,17.4,100,75,3.09,PT,1682368695
lisakovsk,52.5369,62.4936,11.98,48,9,4.58,KZ,1682368880
metlili chaamba,32.2667,3.6333,26.52,22,40,4.12,DZ,1682369099
auki,-8.7676,160.7034,26.28,85,29,1.4,SB,1682369099
tomatlan,19.9333,-105.25,33.02,27,100,5.0,MX,1682369100
borogontsy,62.6683,131.1683,-4.73,96,100,1.27,RU,1682369100
novospasskoye,53.1468,47.7514,13.06,55,98,1.51,RU,1682369100
yanchep,-31.55,115.6833,11.27,80,80,2.68,AU,1682369100
quang ngai,15.1167,108.8,23.77,95,45,1.3,VN,1682368819
cedeira,43.6797,-8.0209,16.32,84,100,6.79,ES,1682369101
formosa,-26.1775,-58.1781,24.99,78,75,3.09,AR,1682369101
puerto carreno,6.189,-67.4859,27.99,83,75,4.12,CO,1682369101
banes,20.9625,-75.7186,27.62,55,16,4.82,CU,1682369101
venev,54.3553,38.2684,10.87,72,91,2.97,RU,1682369102
bhimunipatnam,17.8833,83.4333,26.43,77,41,0.81,IN,1682369102
whangarei,-35.7317,174.3239,13.9,66,5,1.2,NZ,1682369103
tidaholm,58.1804,13.9582,10.51,89,100,2.33,SE,1682369103
lata,40.1629,-8.3327,12.54,93,99,0.84,PT,1682368767
banjarmasin,-3.3244,114.591,24.08,96,100,0.6,ID,1682369103
toccoa,34.5773,-83.3324,20.8,29,0,3.09,US,1682369104
saminaka,10.414,8.6828,26.39,38,89,2.0,NG,1682369104
haldibari,26.3333,88.7667,24.13,58,11,2.02,IN,1682369104
argo,37.6333,22.7333,15.44,66,3,2.27,GR,1682369105
villa gesell,-37.2639,-56.973,18.92,92,70,6.07,AR,1682369060
oqtosh,39.9214,65.9253,18.24,26,62,3.94,UZ,1682369105
mariinsk,56.2139,87.7472,1.37,87,99,8.07,RU,1682369106
myeik,12.4333,98.6,26.09,84,63,1.18,MM,1682369106
montpelier,44.2601,-72.5754,8.57,87,100,1.54,US,1682369047
necochea,-38.5473,-58.7368,17.74,71,22,4.29,AR,1682369106
taoudenni,22.6783,-3.9836,32.35,11,0,3.8,ML,1682368664
caleta de carquin,-11.0925,-77.6267,25.94,71,28,7.04,PE,1682369107
kayangel,8.0823,134.7173,27.91,71,10,1.46,PW,1682369107
inonu,37.3167,33.7667,10.69,42,4,1.34,TR,1682369107
uige,-7.6087,15.0613,20.86,87,74,0.92,AO,1682369108
tibati,6.4667,12.6333,20.75,88,76,1.45,CM,1682368700
kirensk,57.7853,108.1119,-2.45,92,100,0.86,RU,1682369108
junin de los andes,-39.9504,-71.0694,22.21,30,10,0.45,AR,1682369108
labytnangi,66.6572,66.4183,-8.07,87,12,5.07,RU,1682368852
beaufort west,-32.3567,22.583,18.15,56,1,1.58,ZA,1682369110
forster,-32.1667,152.5167,18.95,63,93,1.59,AU,1682368696
soderhamn,61.3037,17.0592,1.09,92,100,3.55,SE,1682369111
playas,-2.6333,-80.3833,27.56,77,100,3.94,EC,1682369111
solok,-0.7918,100.6593,22.53,98,100,0.57,ID,1682369111
mossel bay,-34.1831,22.146,17.96,82,93,2.58,ZA,1682368745
kenora,49.8167,-94.4337,3.54,44,75,2.06,CA,1682368930
parabel',58.6978,81.4825,-3.57,78,66,7.68,RU,1682369112
vorkuta,67.5,64.0,-6.15,91,100,4.0,RU,1682368662
ust'-kulom,61.6864,53.6902,6.25,83,46,3.27,RU,1682369112
bandarbeyla,9.4942,50.8122,28.3,79,53,5.12,SO,1682368777
esmeraldas,-19.7625,-44.3139,24.58,73,64,2.95,BR,1682369017
khandyga,62.6667,135.6,-4.86,92,100,1.46,RU,1682368805
la sarre,48.8002,-79.1996,2.08,90,100,3.3,CA,1682368631
revda,56.801,59.9303,8.33,77,70,2.1,RU,1682368795
hotan,37.0997,79.9269,16.59,15,0,2.89,CN,1682368786
aral,40.5156,81.2636,16.01,21,20,4.11,CN,1682369114
sakakah,29.9697,40.2064,25.76,23,3,4.51,SA,1682369114
galdar,28.147,-15.6502,19.64,79,100,5.11,ES,1682369114
hondomachi-hondo,32.45,130.2,12.59,89,100,3.78,JP,1682369115
arawa,-6.2132,155.5367,26.07,85,100,1.22,PG,1682369115
vallenar,-28.5708,-70.7581,22.58,46,0,3.13,CL,1682369115
kone,-21.0595,164.8658,24.1,82,71,2.0,NC,1682369115
luderitz,-26.6481,15.1594,17.06,88,0,4.06,NA,1682368713
maintirano,-18.0667,44.0167,24.28,79,0,4.58,MG,1682369116
kingscliff,-28.2667,153.5667,20.89,68,75,5.66,AU,1682369116
betioky,-23.7167,44.3833,18.09,89,1,1.47,MG,1682369117
keflavik,64.0049,-22.5624,5.95,81,75,3.6,IS,1682368681
copala,16.65,-98.9833,29.7,60,70,4.7,MX,1682369117
baiao,-2.7906,-49.6717,23.87,96,100,1.65,BR,1682369118
paros,37.0833,25.15,18.5,62,45,6.29,GR,1682369118
tongren,27.7172,109.1853,9.3,97,100,0.79,CN,1682369118
devrek,41.2192,31.9558,8.5,88,1,1.91,TR,1682369119
sogndal,61.2283,7.1003,5.21,64,100,4.63,NO,1682369119
mhamid,29.82,-5.72,29.31,13,2,3.77,MA,1682369119
zyrya,40.3661,50.2917,18.05,74,100,4.01,AZ,1682369119
makoua,0.0069,15.6333,25.15,76,93,1.19,CG,1682369119
urumqi,43.801,87.6005,10.53,37,0,4.0,CN,1682369120
ceeldheer,3.8488,47.1806,28.22,76,97,4.56,SO,1682369120
olinda,-8.0089,-34.8553,26.85,78,40,5.66,BR,1682368690
senanga,-16.1167,23.2667,22.3,43,32,2.65,ZM,1682369120
leisure city,25.4954,-80.4292,28.01,71,75,7.2,US,1682369121
ust-tsilma,65.441,52.1498,-0.83,98,100,3.33,RU,1682369121
puerto san jose,13.9256,-90.8244,31.22,60,91,5.91,GT,1682369121
mar del plata,-38.0023,-57.5575,18.94,91,100,4.12,AR,1682368387
sur,22.5667,59.5289,25.58,65,78,4.74,OM,1682368721
tiassale,5.8983,-4.8283,25.83,91,97,1.7,CI,1682369122
pontianak,-0.0333,109.3333,23.99,100,75,0.51,ID,1682369122
igarka,67.4667,86.5833,1.12,96,100,8.54,RU,1682369122
campo grande,-20.4428,-54.6464,21.75,94,75,3.09,BR,1682369122
saint-paul,-21.0096,55.2707,26.11,88,16,0.45,RE,1682369123
annau,37.8876,58.516,22.72,25,11,4.12,TM,1682369123
mogocha,53.7333,119.7667,-8.11,84,25,1.51,RU,1682369123
colares,38.7992,-9.4469,19.82,76,0,5.66,PT,1682369123
saudarkrokur,65.7461,-19.6394,0.79,62,37,2.95,IS,1682368801
eenhana,-17.4667,16.3333,23.91,56,96,1.13,NA,1682369266
wynyard,-41.0,145.7167,10.54,97,12,2.25,AU,1682368772
howard springs,-12.497,131.047,24.95,82,54,3.1,AU,1682369266
yoloten,37.2989,62.3597,24.32,22,50,5.97,TM,1682369165
sherwood park,53.5168,-113.3187,14.84,43,75,3.13,CA,1682369266
kachug,53.9606,105.8817,-4.25,84,94,0.95,RU,1682369267
san luis de la loma,17.2706,-100.8939,29.78,62,84,4.12,MX,1682368750
rio preto da eva,-2.6994,-59.6997,27.19,81,98,1.02,BR,1682369267
