City,Lat,Lng,Max Temp,Humidity,Cloudiness,Wind Speed,Country,Date
luderitz,-26.6481,15.1594,16.82,81,0,4.86,NA,1682471298
nar'yan-mar,67.6713,53.087,-7.14,87,10,6.03,RU,1682471327
waitangi,-43.9535,-176.5597,13.23,76,98,2.24,NZ,1682471429
yellowknife,62.456,-114.3525,4.2,80,100,3.58,CA,1682471260
longyearbyen,78.2186,15.6401,-7.09,79,0,1.54,SJ,1682471211
hithadhoo,-0.6,73.0833,28.99,75,100,6.2,MV,1682471431
san antonio de pale,-1.4014,5.6325,27.79,75,100,1.99,GQ,1682471263
adamstown,-25.066,-130.1015,24.94,76,4,4.92,PN,1682471432
college,64.8569,-147.8028,4.97,45,20,2.06,US,1682471206
west island,-12.1568,96.8225,26.99,83,75,7.2,CC,1682471432
isafjordur,66.0755,-23.124,-1.78,63,4,2.42,IS,1682471433
bethel,41.3712,-73.414,10.36,66,0,2.06,US,1682471433
puerto natales,-51.7236,-72.4875,4.0,89,100,1.94,CL,1682471211
whitehorse,60.7161,-135.0538,5.17,35,100,7.15,CA,1682471434
ilulissat,69.2167,-51.1,0.01,100,100,3.09,GL,1682471267
constantia,44.1833,28.65,9.38,90,78,3.98,RO,1682471435
kijang,35.2442,129.2139,13.84,55,0,3.87,KR,1682471435
talnakh,69.4865,88.3972,-0.44,85,100,0.41,RU,1682471436
hawaiian paradise park,19.5933,-154.9731,27.73,69,0,5.66,US,1682471206
tralee,52.2704,-9.7026,7.79,96,100,3.55,IE,1682471436
grytviken,-54.2811,-36.5092,3.99,96,47,6.22,GS,1682471214
albany,42.6001,-73.9662,7.51,71,5,1.92,US,1682471437
ribeira grande,38.5167,-28.7,17.1,96,100,5.81,PT,1682471437
mahibadhoo,3.7833,72.9667,28.7,75,100,3.34,MV,1682471438
tiksi,71.6872,128.8694,-9.84,93,100,2.07,RU,1682471247
tazovsky,67.4667,78.7,-12.27,97,80,3.08,RU,1682471438
arkhangel'sk,64.5401,40.5433,2.06,74,40,4.0,RU,1682471438
edinburgh of the seven seas,-37.0676,-12.3116,15.56,64,100,11.48,SH,1682471439
nizhnevartovsk,60.9344,76.5531,0.01,100,100,1.0,RU,1682471439
blackmans bay,-43.0167,147.3167,18.74,59,7,1.72,AU,1682471439
port-aux-francais,-49.35,70.2167,5.59,90,87,11.55,TF,1682471440
margaret river,-33.95,115.0667,16.63,73,100,6.4,AU,1682471440
crnomelj,45.5711,15.1889,6.0,96,22,0.67,SI,1682471440
klyuchi,52.2667,79.1667,10.09,59,64,5.08,RU,1682471441
altay,47.8667,88.1167,2.28,57,52,0.9,CN,1682471441
utrik,11.2278,169.8474,27.1,78,89,9.56,MH,1682471441
wailua homesteads,22.0669,-159.378,26.24,70,100,6.17,US,1682471442
floro,61.5996,5.0328,2.98,75,40,4.12,NO,1682471442
chonchi,-42.6128,-73.8092,10.62,99,100,0.68,CL,1682471317
baturaja,-4.1333,104.1667,25.47,88,100,0.63,ID,1682471443
puerto ayora,-0.7393,-90.3518,25.31,93,100,1.34,EC,1682471443
kodiak,57.79,-152.4072,5.73,75,75,6.17,US,1682471443
vadso,70.0744,29.7487,-1.91,74,100,1.54,NO,1682471444
ushuaia,-54.8,-68.3,4.81,81,20,0.51,AR,1682470873
sinabang,2.4803,96.3801,28.23,76,100,1.36,ID,1682471445
cumbal,0.9088,-77.7915,9.38,95,97,0.56,CO,1682471445
uturoa,-16.7333,-151.4333,28.21,75,99,4.12,PF,1682471446
godhra,22.75,73.6333,26.07,37,6,3.02,IN,1682471446
anadyr,64.75,177.4833,-4.72,53,0,4.0,RU,1682471446
kizel,59.0471,57.6477,5.69,48,100,1.96,RU,1682471447
vila franca do campo,37.7167,-25.4333,17.23,94,5,3.18,PT,1682471447
avarua,-21.2078,-159.775,26.03,78,75,3.6,CK,1682471274
lang suan,9.9456,99.0785,27.52,78,100,0.35,TH,1682471448
mount pearl,47.5166,-52.7813,1.58,96,100,7.2,CA,1682471448
atafu village,-8.5421,-172.5159,29.36,74,63,6.07,TK,1682471448
sitka,57.0531,-135.33,7.94,57,40,3.6,US,1682471437
mejit,10.2753,170.8646,27.17,79,98,9.27,MH,1682471449
punta arenas,-53.15,-70.9167,6.06,75,75,6.69,CL,1682471256
selfoss,63.9331,-20.9971,-0.53,66,61,2.78,IS,1682471450
thompson,55.7435,-97.8558,0.99,96,51,3.5,CA,1682471284
alice springs,-23.7,133.8833,26.75,32,87,4.12,AU,1682471335
alvorada,-12.48,-49.1247,24.41,64,30,1.35,BR,1682471451
rongelap,11.1635,166.8941,27.11,83,100,10.2,MH,1682471372
carnarvon,-24.8667,113.6333,18.59,59,0,7.02,AU,1682471328
brookings,44.3114,-96.7984,9.19,43,20,5.66,US,1682471452
afaahiti,-17.75,-149.2833,27.81,83,100,5.3,PF,1682471452
bethanie,-26.4833,17.15,18.4,44,0,1.02,NA,1682471453
vorgashor,67.5833,63.95,-11.95,98,97,4.47,RU,1682471453
oranjemund,-28.55,16.4333,14.13,93,0,2.94,NA,1682471453
kavaratti,10.5669,72.642,27.31,70,100,2.18,IN,1682471454
hue,16.4667,107.6,27.06,89,75,1.03,VN,1682471454
la ronge,55.1001,-105.2842,2.63,98,100,4.21,CA,1682471454
chui,-33.6971,-53.4616,18.51,92,100,2.41,UY,1682471209
ouarzazat,30.9189,-6.8934,23.78,24,50,2.7,MA,1682471455
remire-montjoly,4.9167,-52.2667,24.02,100,100,2.57,GF,1682471455
smithers,54.7804,-127.1743,8.5,46,88,2.13,CA,1682471224
kiunga,-6.1219,141.2906,29.71,77,89,0.34,PG,1682471456
saipan,15.1355,145.701,31.39,100,40,9.77,MP,1682471456
barra de santo antonio,-9.4047,-35.5072,24.6,86,100,1.4,BR,1682471318
zalingei,12.9096,23.4741,29.18,26,89,0.7,SD,1682471457
geraldton,-28.7667,114.6,19.23,72,40,6.17,AU,1682471457
hermanus,-34.4187,19.2345,14.88,84,100,3.5,ZA,1682471457
woodcrest,33.8822,-117.3573,26.72,61,0,5.14,US,1682471457
katabu,-4.9333,122.5167,25.59,89,100,1.01,ID,1682471458
rabo de peixe,37.8,-25.5833,16.73,100,100,2.57,PT,1682471458
bilibino,68.0546,166.4372,-2.24,59,5,0.47,RU,1682471247
port lincoln,-34.7333,135.8667,23.02,50,100,8.6,AU,1682471300
barcelos,41.5388,-8.6151,16.03,93,100,1.23,PT,1682471177
iqaluit,63.7506,-68.5145,-4.79,92,20,2.11,CA,1682471459
babayevo,59.3936,35.9371,7.44,80,80,2.11,RU,1682471459
olonkinbyen,70.9221,-8.7187,-3.64,69,100,5.52,SJ,1682471272
guatrache,-37.6678,-63.5302,17.83,48,100,2.81,AR,1682471460
camalu,30.85,-116.0667,16.58,73,4,3.89,MX,1682471460
khagrachhari,23.1,91.9667,26.54,51,10,0.62,BD,1682471461
cova figueira,14.8905,-24.2934,20.67,79,4,6.49,CV,1682471462
richfield,44.8833,-93.283,8.32,42,20,4.12,US,1682471361
bredasdorp,-34.5322,20.0403,13.97,89,100,1.17,ZA,1682471462
vuktyl,63.8567,57.3094,-4.88,94,20,1.03,RU,1682471462
emerald,-23.5333,148.1667,24.08,50,62,5.56,AU,1682471463
antsiranana,-12.2787,49.2917,24.76,92,100,2.47,MG,1682471250
slave lake,55.2834,-114.769,8.19,34,9,6.58,CA,1682471464
port alfred,-33.5906,26.891,19.54,98,98,1.34,ZA,1682471464
hamilton,39.1834,-84.5333,13.85,51,100,2.57,US,1682470765
hafar al-batin,28.4328,45.9708,23.62,24,54,2.08,SA,1682471290
pielavesi,63.2333,26.75,3.59,97,38,2.25,FI,1682471465
mount gambier,-37.8333,140.7667,21.52,48,100,4.96,AU,1682471103
fale old settlement,-9.3852,-171.2468,29.29,72,13,6.19,TK,1682471466
faaa,-17.55,-149.6,28.86,78,75,3.58,PF,1682471466
port elizabeth,-33.918,25.5701,19.06,99,100,1.54,ZA,1682471466
ishimbay,53.4545,56.0415,14.26,49,100,3.96,RU,1682471467
olonets,60.9847,32.9698,8.21,75,47,2.39,RU,1682471467
san patricio,28.017,-97.5169,24.05,83,67,5.39,US,1682471468
mermoz boabab,14.7065,-17.4758,21.31,88,0,7.95,SN,1682471468
thai binh,20.45,106.3333,20.32,81,100,2.01,VN,1682471468
luziania,-16.2525,-47.9503,21.83,67,65,1.87,BR,1682471468
gadzhiyevo,69.2551,33.3362,-9.1,92,81,2.37,RU,1682471469
saint-philippe,-21.3585,55.7679,23.77,84,6,2.2,RE,1682471284
weno,7.4515,151.8468,26.97,94,100,3.6,FM,1682471469
luwuk,-0.9516,122.7875,29.33,73,95,0.98,ID,1682471470
labytnangi,66.6572,66.4183,-11.25,92,5,2.22,RU,1682471470
lata,40.1629,-8.3327,12.82,91,53,1.04,PT,1682471310
santyoku,37.4406,129.1708,11.33,65,54,4.2,KR,1682471471
ulsteinvik,62.3432,5.8487,4.86,86,100,2.68,NO,1682471326
jamestown,42.097,-79.2353,5.85,79,100,2.24,US,1682470769
khandyga,62.6667,135.6,1.79,85,87,1.5,RU,1682471472
coronel dorrego,-38.7187,-61.2873,17.33,54,100,3.16,AR,1682471472
kapit,2.0167,112.9333,26.68,88,85,0.19,MY,1682470874
pyapon,16.2833,95.6833,29.97,62,100,3.32,MM,1682471473
lihue,21.9789,-159.3672,26.58,69,100,6.17,US,1682471386
aasiaat,68.7098,-52.8699,-0.08,99,100,3.11,GL,1682471234
ust-nera,64.5667,143.2,-2.92,84,55,1.73,RU,1682471473
invercargill,-46.4,168.35,11.68,82,99,0.89,NZ,1682471474
nampula,-15.1165,39.2666,17.77,99,30,1.87,MZ,1682471474
dapitan,8.6464,123.4208,29.51,69,69,4.98,PH,1682471475
mont-laurier,46.5501,-75.4993,3.83,86,100,1.57,CA,1682471475
carepa,7.7585,-76.6525,24.92,91,100,1.8,CO,1682471475
shiyan,32.6475,110.7781,17.9,51,0,1.35,CN,1682471476
lebu,-37.6167,-73.65,14.03,81,100,1.95,CL,1682471212
ashdod,31.8167,34.65,14.56,78,0,1.35,IL,1682471477
pisco,-13.7,-76.2167,22.03,83,0,5.66,PE,1682471477
westport,41.1415,-73.3579,11.9,60,20,0.89,US,1682471477
codrington,-38.2667,141.9667,22.06,49,100,6.43,AU,1682471478
kilindoni,-7.9139,39.6668,27.69,72,21,8.26,TZ,1682471308
yenotayevka,47.2456,47.0281,9.98,83,0,2.91,RU,1682471478
hafnarfjordur,64.0671,-21.9377,2.21,87,82,1.85,IS,1682471478
konongo,6.6167,-1.2167,22.99,97,100,0.23,GH,1682471479
magadan,59.5667,150.8,0.88,72,25,2.3,RU,1682471479
sarandi del yi,-33.35,-55.6333,15.28,96,17,2.4,UY,1682471479
akureyri,65.6835,-18.0878,-2.8,77,95,1.16,IS,1682471239
udachny,66.4167,112.4,-3.08,79,100,3.91,RU,1682471480
susuman,62.7833,148.1667,-4.44,78,97,0.77,RU,1682471480
canutama,-6.5339,-64.3831,22.88,98,37,0.38,BR,1682471481
hede,33.7681,120.2517,15.67,62,0,4.26,CN,1682471481
wau,7.7029,27.9953,23.24,75,100,4.36,SS,1682471481
mili,6.0815,171.735,27.22,81,100,6.23,MH,1682471482
hinton,53.4001,-117.5857,6.84,61,100,4.63,CA,1682471232
ghazni,33.5536,68.4269,11.83,53,48,1.0,AF,1682471482
iskateley,67.6803,53.1512,-7.2,87,10,6.05,RU,1682471483
qaqortoq,60.7167,-46.0333,0.82,94,97,0.68,GL,1682471483
friedrichroda,50.8575,10.5651,2.35,81,54,1.71,DE,1682471483
kruisfontein,-34.0033,24.7314,17.16,95,27,1.31,ZA,1682471291
myaydo,19.3667,95.2167,31.33,38,0,1.96,MM,1682471484
wynyard,-41.0,145.7167,18.88,57,56,2.59,AU,1682471484
zinder,13.8072,8.9881,28.89,24,79,2.75,NE,1682471485
fnidek,35.8491,-5.3575,18.84,50,0,1.48,MA,1682471485
camana,-16.6228,-72.7111,20.99,88,21,3.13,PE,1682471225
harlingen,26.1906,-97.6961,26.05,94,100,3.09,US,1682471486
noumea,-22.2763,166.4572,26.99,99,100,0.49,NC,1682471318
taulaga,-11.0553,-171.0883,28.79,73,57,4.44,AS,1682471486
touros,-5.1989,-35.4608,25.16,88,84,3.82,BR,1682471487
trondheim,63.4305,10.3951,1.05,94,100,1.3,NO,1682471487
suva,-18.1416,178.4415,29.71,70,75,6.69,FJ,1682471207
arraial do cabo,-22.9661,-42.0278,23.68,86,0,5.96,BR,1682471487
lastoursville,-0.8143,12.7287,22.32,98,100,0.47,GA,1682471488
illizi,26.4833,8.4667,24.69,26,100,3.7,DZ,1682471488
uray,60.1247,64.7758,7.11,93,80,2.42,RU,1682471489
zhezqazghan,47.7833,67.7667,4.32,65,0,4.0,KZ,1682471489
port mathurin,-19.6833,63.4167,25.88,79,11,6.68,MU,1682471489
urangan,-25.3,152.9,24.0,73,18,8.83,AU,1682471490
parras de la fuente,25.4167,-102.1833,22.97,9,0,2.57,MX,1682471490
happy valley-goose bay,53.3168,-60.3315,5.78,75,56,0.6,CA,1682471306
bronkhorstspruit,-25.8102,28.7425,15.54,64,13,0.92,ZA,1682471491
kulhudhuffushi,6.6221,73.07,28.67,71,100,3.94,MV,1682471491
machico,32.7,-16.7667,20.4,62,20,0.51,PT,1682471491
keflavik,64.0049,-22.5624,2.24,93,75,2.57,IS,1682471485
malazgirt,39.1427,42.5401,5.5,69,6,0.37,TR,1682471492
canguaretama,-6.38,-35.1289,24.46,89,86,2.7,BR,1682471492
ilave,-16.0833,-69.6667,3.95,57,46,0.77,PE,1682471493
turuntayevo,52.2,107.6167,6.05,87,100,3.31,RU,1682471493
inhambane,-23.865,35.3833,21.57,83,3,2.21,MZ,1682471493
kirakira,-10.4544,161.9205,29.12,65,99,2.22,SB,1682471494
ambovombe,-25.1667,46.0833,17.99,75,2,1.58,MG,1682471250
santa ana,33.7456,-117.8678,23.14,71,75,5.14,US,1682471431
tura,25.5198,90.2201,25.64,40,100,0.63,IN,1682471393
bantay,17.5847,120.3892,30.54,84,5,0.97,PH,1682471495
rio branco,-9.9747,-67.81,24.34,100,0,1.54,BR,1682471496
ponta delgada,37.7333,-25.6667,17.4,100,100,2.57,PT,1682471496
punata,-17.55,-65.8333,13.3,74,1,3.24,BO,1682471497
fernie,49.5,-115.0687,8.24,87,100,2.14,CA,1682471497
tchibanga,-2.85,11.0333,21.76,99,100,0.91,GA,1682471498
leninskoye,41.7589,69.3864,13.1,52,0,1.73,KZ,1682471498
penn yan,42.6609,-77.0539,7.4,73,100,1.79,US,1682471498
khammam,17.25,80.15,25.82,78,61,2.4,IN,1682471499
saint-francois,46.4154,3.9054,4.69,87,0,0.0,FR,1682471373
beith,55.7492,-4.6368,1.97,85,100,1.03,GB,1682471499
talcahuano,-36.7167,-73.1167,12.82,94,75,1.03,CL,1682471415
camargo,27.6667,-105.1667,27.89,7,100,3.91,MX,1682471500
piti village,13.4626,144.6933,29.83,83,75,7.72,GU,1682471500
sirte,31.2089,16.5887,20.76,37,59,3.76,LY,1682471501
puerto baquerizo moreno,-0.9,-89.6,25.92,76,53,2.05,EC,1682471254
sainte-anne-des-monts,49.124,-66.4924,3.38,89,77,0.01,CA,1682471501
laguna,38.421,-121.4238,29.99,18,0,4.63,US,1682471488
broken hill,-31.95,141.4333,24.03,34,100,9.01,AU,1682471502
kapuskasing,49.4169,-82.4331,-1.51,97,100,2.7,CA,1682471502
temiskaming shores,47.4938,-79.7153,0.33,96,100,1.74,CA,1682471503
muisne,0.6,-80.0333,26.31,84,100,0.54,EC,1682471503
papatowai,-46.5619,169.4708,10.35,67,84,7.09,NZ,1682471306
namtsy,62.7161,129.6658,0.32,87,85,3.53,RU,1682471504
lompoc,34.6391,-120.4579,22.05,83,100,5.81,US,1682471226
shizunai-furukawacho,42.3339,142.3669,7.65,96,100,10.65,JP,1682471346
badger,64.8,-147.5333,4.93,36,20,2.06,US,1682471256
huarmey,-10.0681,-78.1522,24.89,79,91,3.6,PE,1682471505
argostolion,38.1811,20.489,15.27,89,100,2.51,GR,1682471387
chibougamau,49.9168,-74.3659,2.35,90,99,2.4,CA,1682471506
port douglas,-16.4833,145.4667,26.55,68,82,7.84,AU,1682471506
banjar,-8.19,114.9675,28.73,76,27,0.28,ID,1682471506
fort bragg,35.139,-79.006,16.62,65,100,2.57,US,1682471506
enewetak,11.3474,162.3373,26.95,82,98,9.04,MH,1682471260
al jawf,29.5,38.75,18.98,19,0,2.82,SA,1682471507
callao,-12.0667,-77.15,25.4,73,0,6.69,PE,1682471060
kapa'a,22.0752,-159.319,26.99,69,100,6.17,US,1682471508
salta,-24.7859,-65.4117,15.32,91,2,0.89,AR,1682471508
north platte,41.1239,-100.7654,11.85,67,100,5.36,US,1682471508
vilyuysk,63.7553,121.6247,-0.79,93,100,4.3,RU,1682471509
teruel,40.6667,-0.6667,9.92,82,30,0.61,ES,1682471509
kolonia,50.9333,6.95,4.41,79,0,0.51,DE,1682471235
taoudenni,22.6783,-3.9836,29.58,12,11,4.72,ML,1682471509
petropavlovsk-kamchatsky,53.0452,158.6483,5.33,45,75,7.0,RU,1682471315
mahomet,40.1953,-88.4042,10.08,67,79,3.58,US,1682471510
dudinka,69.4058,86.1778,-0.21,97,100,3.59,RU,1682471252
qamdo,31.1667,97.2333,-1.82,81,100,1.89,CN,1682471511
cumberland,35.0502,-78.8664,16.99,64,100,2.57,US,1682471511
ouesso,1.6136,16.0517,22.3,98,100,0.72,CG,1682471512
pariaman,-0.619,100.12,26.03,80,85,1.74,ID,1682471512
makurazaki,31.2667,130.3167,15.75,68,99,10.81,JP,1682471512
port hedland,-20.3167,118.5667,29.03,70,40,2.57,AU,1682471512
zeya,53.75,127.2667,4.61,31,14,2.77,RU,1682471513
amarante do maranhao,-5.5667,-46.7422,23.54,83,100,0.85,BR,1682471513
vilyuchinsk,52.9306,158.4028,6.15,77,35,6.17,RU,1682471258
portales,34.1862,-103.3344,22.74,22,63,2.47,US,1682471403
siwa oasis,29.2041,25.5195,21.2,46,0,3.65,EG,1682471514
aginskoye,51.1,114.53,6.9,20,14,2.76,RU,1682471514
mar del plata,-38.0023,-57.5575,18.38,96,100,3.09,AR,1682470774
fort st. john,56.2499,-120.8529,5.2,62,100,2.21,CA,1682471233
san jose del cabo,23.0589,-109.6977,29.6,52,20,4.63,MX,1682471515
topchikha,52.8192,83.1185,4.21,86,100,4.11,RU,1682471515
lincoln,40.8,-96.667,16.04,51,75,2.57,US,1682471493
usakos,-22.0,15.6,25.8,45,59,0.57,NA,1682471517
baiquan,47.5833,126.0833,8.31,17,99,2.94,CN,1682471517
balaklava,44.5,33.6,15.21,21,100,6.0,UA,1682471517
hajin,34.6927,40.827,20.16,30,0,3.01,SY,1682471518
castletown,53.0281,-9.0686,7.27,94,100,4.36,IE,1682471518
yushu,44.8,126.5333,8.15,25,0,2.16,CN,1682471518
caleta de carquin,-11.0925,-77.6267,23.88,80,75,5.34,PE,1682471519
hailar,49.2,119.7,7.5,26,100,4.9,CN,1682471519
colac,-38.3333,143.5833,20.09,50,84,2.71,AU,1682471519
woodlake,37.4211,-77.6793,13.37,75,0,3.09,US,1682471121
greymouth,-42.4667,171.2,13.02,69,100,4.07,NZ,1682471517
quimili,-27.6333,-62.4167,16.97,78,0,2.49,AR,1682471520
beddau,51.554,-3.3581,7.58,76,100,3.6,GB,1682471521
kambove,-10.8764,26.5969,14.55,92,5,2.15,CD,1682471353
guerrero negro,27.9769,-114.0611,17.1,69,0,7.01,MX,1682471522
tual,-5.6667,132.75,28.3,74,94,0.73,ID,1682471267
odda,60.0691,6.5457,5.43,96,100,2.52,NO,1682471522
hasaki,35.7333,140.8333,18.22,85,100,11.94,JP,1682471328
miles city,46.4083,-105.8406,16.54,36,0,2.06,US,1682471523
st. john's,47.5649,-52.7093,2.04,96,100,8.94,CA,1682471420
belokurikha,51.9959,84.9896,3.42,96,100,3.86,RU,1682471524
yilan,24.757,121.753,21.31,99,100,2.65,TW,1682471524
sal rei,16.1833,-22.9167,22.12,78,7,7.04,CV,1682471525
swakopmund,-22.6833,14.5333,14.99,87,2,0.45,NA,1682471525
celestun,20.8667,-90.4,26.64,76,100,4.43,MX,1682471525
stanley,54.868,-1.6985,3.2,85,40,0.51,GB,1682471287
nova sintra,14.8667,-24.7167,20.21,76,3,8.63,CV,1682471526
palencia,42.4167,-4.5,13.77,86,100,2.09,ES,1682471526
bubaque,11.2833,-15.8333,25.61,70,40,8.93,GW,1682471527
baglung,28.2719,83.5898,17.45,39,72,1.84,NP,1682471527
soc trang,9.6033,105.98,30.33,59,100,6.38,VN,1682471527
bobo-dioulasso,11.1771,-4.2979,29.84,44,100,3.22,BF,1682471528
hjo,58.3013,14.2878,2.99,87,99,5.21,SE,1682471528
fuglafjordur,62.244,-6.814,1.26,60,100,7.88,FO,1682471528
nchelenge,-9.3451,28.734,21.13,86,11,3.21,ZM,1682471529
dawson creek,55.7666,-120.2362,7.54,43,96,7.05,CA,1682471347
champerico,14.3,-91.9167,29.25,64,20,4.92,GT,1682471529
naha,26.2125,127.6811,20.95,85,75,9.26,JP,1682471530
ghadamis,30.1337,9.5007,22.15,15,2,3.5,LY,1682471530
imbituba,-28.24,-48.6703,19.98,93,30,4.12,BR,1682471530
le port,-20.9373,55.2919,24.38,94,1,1.87,RE,1682471531
juneau,58.3019,-134.4197,5.0,81,100,6.69,US,1682471306
novaya igirma,57.1334,103.9112,-1.41,90,100,4.46,RU,1682471531
bambari,5.768,20.6757,24.2,84,100,2.91,CF,1682471532
magdagachi,53.45,125.8,4.69,26,0,1.8,RU,1682471532
la foa,-21.7108,165.8276,27.48,64,100,1.36,NC,1682471532
shahrak,34.1074,64.3052,9.16,51,0,0.19,AF,1682471533
karratha,-20.7377,116.8463,27.3,38,76,2.8,AU,1682471533
saudarkrokur,65.7461,-19.6394,-0.94,67,7,1.79,IS,1682471249
urengoy,65.9667,78.3667,-8.42,93,8,2.84,RU,1682471534
tsiombe,-25.3,45.4833,17.09,80,0,0.69,MG,1682471249
acajutla,13.5928,-89.8275,28.47,74,7,1.82,SV,1682471534
northam,51.0333,-4.2167,7.56,72,100,5.49,GB,1682471535
minas de marcona,-15.2119,-75.1103,17.33,80,84,3.75,PE,1682471535
namp'o,38.7375,125.4078,8.47,55,32,8.46,KP,1682471536
pandan,14.0453,124.1694,28.58,69,31,3.97,PH,1682471536
trapani,37.8333,12.6667,15.15,91,24,1.75,IT,1682471536
inyonga,-6.7167,32.0667,17.6,93,0,2.0,TZ,1682471537
rawson,-43.3002,-65.1023,14.62,77,100,5.38,AR,1682471537
wanning,18.8003,110.3967,24.48,87,91,4.06,CN,1682471537
ghormach,35.7306,63.7826,19.47,27,5,1.12,AF,1682471538
huancavelica,-12.7667,-74.9833,1.76,96,100,0.77,PE,1682471538
khash,28.2211,61.2158,14.85,56,0,0.59,IR,1682471538
nahiyat ash shinafiyah,31.5874,44.6602,23.05,27,0,2.12,IQ,1682471244
merizo village,13.2658,144.6691,29.65,85,10,8.06,GU,1682471539
sola,-13.8833,167.55,26.96,75,20,1.11,VU,1682471539
papao,-17.75,-149.55,28.7,79,100,5.03,PF,1682471539
calama,-22.4667,-68.9333,16.27,27,0,3.6,CL,1682471048
uliastay,47.7417,96.8444,-3.84,43,100,4.98,MN,1682471540
la passe,45.5549,-0.8967,11.66,98,100,2.85,FR,1682471273
harstad,68.799,16.5293,0.09,95,100,6.26,NO,1682471541
ugento,39.9263,18.1574,14.14,80,53,5.93,IT,1682471541
tashtyp,52.7939,89.8983,0.3,69,98,3.94,RU,1682471542
kazerun,29.6195,51.6541,18.62,49,7,1.33,IR,1682471542
guardo,42.7897,-4.8482,11.47,86,100,0.1,ES,1682471542
muynoq,43.7683,59.0214,16.13,33,99,6.43,UZ,1682471542
suwayr,30.1171,40.3893,20.56,20,25,1.41,SA,1682471543
yuzhno-kurilsk,44.0306,145.8556,5.63,85,100,11.2,RU,1682471543
alofi,-19.0595,-169.9187,25.9,77,100,6.59,NU,1682471543
ocean city,39.2776,-74.5746,12.22,50,99,2.24,US,1682471526
sandnessjoen,66.0217,12.6316,0.36,84,100,0.89,NO,1682471263
dalandzadgad,43.5708,104.425,11.5,33,81,11.69,MN,1682471544
san nicolas de los arroyos,-33.3358,-60.2252,14.42,98,26,1.22,AR,1682471545
pokhara,28.2333,83.9833,20.65,31,92,1.67,NP,1682471545
monticello,45.3055,-93.7941,8.02,44,0,3.09,US,1682471545
idfu,24.9803,32.8747,22.8,13,0,2.88,EG,1682471546
kadugli,11.0167,29.7167,25.84,68,66,3.46,SD,1682471359
deta,45.3889,21.2244,8.89,94,9,2.72,RO,1682471546
taroa,8.7058,171.2275,27.32,79,100,7.83,MH,1682471547
nishinoomote,30.7333,131.0,17.46,71,100,13.26,JP,1682471547
fauske,67.2588,15.3918,0.02,80,100,1.87,NO,1682471547
corn island,12.1694,-83.0418,26.89,71,1,5.65,NI,1682471548
tolanaro,-25.0319,46.9987,18.3,79,2,2.55,MG,1682471548
patacamaya,-17.2333,-67.9167,8.24,74,0,3.09,BO,1682471548
sisimiut,66.9395,-53.6735,0.88,98,100,3.08,GL,1682471258
dumai,1.6833,101.45,25.82,90,100,0.68,ID,1682471549
cabo san lucas,22.8909,-109.9124,29.61,53,20,4.63,MX,1682471257
galesong,-5.3166,119.3661,29.01,76,17,1.05,ID,1682471550
nadi,-17.8,177.4167,30.0,66,20,5.14,FJ,1682471355
tefe,-3.3542,-64.7114,22.45,94,93,1.3,BR,1682471550
visby,57.6409,18.296,7.12,87,100,3.6,SE,1682471550
padang,-0.9492,100.3543,26.03,79,93,1.52,ID,1682471551
ihosy,-22.4,46.1167,16.14,93,60,1.73,MG,1682471551
fuxin,42.0156,121.6589,9.52,23,0,2.09,CN,1682471551
el hadjira,32.6134,5.5126,25.73,21,0,4.64,DZ,1682471552
kingston,17.997,-76.7936,25.69,83,15,0.78,JM,1682471349
mananjary,-21.2167,48.3333,22.8,85,92,1.56,MG,1682471553
qujing,25.4833,103.7833,13.82,63,51,2.27,CN,1682471259
moroni,-11.7022,43.2551,25.65,78,7,5.15,KM,1682471553
kitgum,3.2783,32.8867,17.89,96,100,1.11,UG,1682471384
zhangzhou,24.5133,117.6556,18.78,82,100,1.08,CN,1682471422
flying fish cove,-10.4217,105.6791,26.94,79,100,4.68,CX,1682471555
takeo,10.9167,104.8333,29.63,64,99,3.8,KH,1682471555
castillos,-34.1667,-53.8333,17.26,93,89,1.74,UY,1682471479
kashgar,39.4547,75.9797,15.32,40,100,1.88,CN,1682471556
debila,33.5167,6.95,26.45,21,92,4.18,DZ,1682471556
nowshahr,36.649,51.496,16.97,94,75,2.06,IR,1682471557
arkadak,51.9326,43.4978,9.99,95,100,5.79,RU,1682471558
labrador city,52.9463,-66.9114,1.33,94,100,1.11,CA,1682471259
pipar,26.3856,73.5378,27.04,23,100,3.78,IN,1682471558
georgetown,5.4112,100.3354,27.96,83,20,1.54,MY,1682471399
dryden,49.7833,-92.7503,-0.5,89,44,1.14,CA,1682471559
ulladulla,-35.35,150.4667,20.98,61,53,2.79,AU,1682471559
siguiri,11.6667,-9.5,30.72,20,82,1.05,GN,1682471559
huanren,41.2647,125.3667,3.69,86,100,2.93,CN,1682471560
narasapur,16.45,81.6667,26.48,80,33,1.61,IN,1682471560
kievskiy,55.4364,36.8983,9.99,92,100,2.86,RU,1682471560
galich,58.3797,42.3475,10.71,93,100,3.76,RU,1682471561
tibiri,13.5627,7.0485,30.93,23,100,3.22,NE,1682471561
vyazemskiy,47.5378,134.7525,7.58,47,7,4.32,RU,1682471561
margate,51.3813,1.3862,7.72,72,100,0.45,GB,1682471562
jumla,29.2747,82.1838,8.17,70,5,1.77,NP,1682471562
ola,59.5833,151.2833,0.86,77,79,1.44,RU,1682471292
terlizzi,41.1311,16.5453,12.08,70,40,4.63,IT,1682471563
tamanrasset,22.785,5.5228,19.95,13,0,1.03,DZ,1682471563
kingscliff,-28.2667,153.5667,22.65,83,100,6.69,AU,1682471271
coquimbo,-29.9533,-71.3436,14.85,94,100,2.57,CL,1682470997
naze,28.3667,129.4833,17.76,82,95,6.01,JP,1682471564
vorkuta,67.5,64.0,-11.77,98,98,4.57,RU,1682471564
tamandare,-8.7597,-35.1047,24.96,88,96,1.74,BR,1682471565
viamao,-30.0811,-51.0233,20.77,78,75,4.12,BR,1682471565
miri,4.4148,114.0089,27.24,86,94,1.47,MY,1682471566
ar ruseris,11.8659,34.3869,27.77,54,97,6.31,SD,1682471566
sierre,46.2919,7.5356,7.1,71,0,0.0,CH,1682471566
santa rosalia,27.3167,-112.2833,25.19,38,94,2.19,MX,1682471566
vytegra,61.0064,36.4481,7.28,78,7,1.4,RU,1682471567
tofol,5.3248,163.0078,29.88,74,75,7.72,FM,1682471567
gargalianoi,37.0667,21.6333,14.09,89,84,1.78,GR,1682471567
kailua-kona,19.6406,-155.9956,27.98,76,75,3.6,US,1682471568
west fargo,46.875,-96.9004,9.0,45,0,2.57,US,1682471568
santa cruz,-17.8,-63.1667,22.7,94,75,3.09,BO,1682471568
nemuro,43.3236,145.575,5.54,88,100,13.63,JP,1682471568
egersund,58.4513,5.9997,4.1,63,8,9.66,NO,1682471569
narsinghgarh,23.7,77.1,25.24,37,100,3.25,IN,1682471569
pariquera acu,-24.715,-47.8811,18.58,98,100,0.25,BR,1682471569
yarmouth,41.7057,-70.2286,9.52,92,100,3.09,US,1682471570
punta cardon,11.6581,-70.215,27.0,72,61,7.53,VE,1682471570
puerto aysen,-45.4,-72.7,8.91,97,50,1.38,CL,1682471570
puerto armuelles,8.2833,-82.8667,26.99,81,19,1.06,PA,1682471571
bairnsdale,-37.8333,147.6167,21.7,63,0,1.28,AU,1682471494
haiku-pauwela,20.9219,-156.3051,25.01,81,75,5.14,US,1682471571
christchurch,-43.5333,172.6333,13.11,67,100,3.6,NZ,1682471542
colonia,50.9333,6.95,4.41,80,0,0.51,DE,1682471572
laojunmiao,39.8333,97.7333,7.0,34,90,1.33,CN,1682471309
coronel suarez,-37.4547,-61.9334,15.43,63,100,1.47,AR,1682471572
ndola,-12.9587,28.6366,15.31,81,6,2.17,ZM,1682471573
grand falls-windsor,48.9332,-55.6649,0.84,92,100,0.89,CA,1682471573
bikenibeu village,1.3673,173.1241,29.98,74,75,2.57,KI,1682471573
balogo,10.8868,124.7105,29.71,66,68,1.43,PH,1682471573
toliara,-23.35,43.6667,19.23,84,0,5.27,MG,1682471574
ambon,-3.6954,128.1814,30.08,93,20,2.57,ID,1682471574
ad dilam,23.9915,47.1627,24.89,46,100,2.21,SA,1682471574
saint-pierre,-21.3393,55.4781,24.2,78,100,1.03,RE,1682471575
iwanai,42.9744,140.5089,8.33,96,100,2.69,JP,1682471575
santa terezinha,-29.9002,-50.0904,21.26,91,100,6.11,BR,1682471575
pimentel,-6.8367,-79.9342,25.16,73,75,6.17,PE,1682471576
severoural'sk,60.1533,59.952,8.53,70,100,1.15,RU,1682471576
poyang,28.9924,116.6675,16.0,75,10,1.44,CN,1682471577
jacksonville beach,30.2947,-81.3931,23.01,84,20,2.06,US,1682471514
izazi,-7.2,35.7333,21.3,83,21,0.96,TZ,1682471577
taltal,-25.4,-70.4833,17.78,83,54,1.76,CL,1682471339
vernon,50.2581,-119.2691,16.36,43,100,1.79,CA,1682471207
kuusamo,65.9667,29.1833,-1.98,93,100,5.14,FI,1682471578
argo,37.6333,22.7333,14.88,71,100,2.19,GR,1682471578
angaur state,6.906,134.13,28.84,73,17,3.89,PW,1682471579
talakan,50.3167,130.3667,5.72,33,19,5.75,RU,1682471579
howard springs,-12.497,131.047,31.01,79,100,5.53,AU,1682471388
al mayadin,35.0209,40.4535,19.56,33,0,2.81,SY,1682471580
shingu,33.7333,135.9833,19.24,98,100,7.92,JP,1682471295
nikolayevsk-on-amure,53.1406,140.73,1.9,92,100,5.38,RU,1682471580
tambopata,-12.7333,-69.1833,24.55,83,77,0.78,PE,1682471581
siocon,7.7061,122.1353,29.84,67,100,0.87,PH,1682471581
hastings,50.8552,0.5729,7.73,43,100,4.51,GB,1682471581
revda,56.801,59.9303,9.62,68,100,1.98,RU,1682471322
salalah,17.0151,54.0924,28.05,78,40,1.54,OM,1682471582
mount isa,-20.7333,139.5,26.87,50,1,3.6,AU,1682471582
egilsstadir,65.2653,-14.3948,-2.77,76,100,2.6,IS,1682471528
east london,-33.0153,27.9116,20.09,93,48,2.51,ZA,1682471583
galliano,29.4422,-90.2992,22.0,82,4,4.09,US,1682471318
saynshand,44.8824,110.1163,9.24,26,100,5.29,MN,1682471583
jwaneng,-24.6004,24.7303,17.91,50,0,3.07,BW,1682471584
carnot,4.9409,15.8665,21.26,95,100,1.1,CF,1682471585
princeville,45.7668,-61.2985,4.19,86,28,0.89,CA,1682471585
conceicao da barra,-18.5933,-39.7322,22.59,93,0,1.9,BR,1682471493
atasu,48.6814,71.6433,10.53,49,4,2.75,KZ,1682471585
newcastle,-32.9272,151.7765,22.68,72,40,3.09,AU,1682471538
qazigund,33.6333,75.15,9.64,82,7,0.6,IN,1682471586
canakkale,40.0833,26.8333,14.32,77,99,1.37,TR,1682471587
orekhovo-zuyevo,55.8108,38.9719,10.19,96,100,3.15,RU,1682471587
pechora,65.1472,57.2244,-7.83,98,72,1.34,RU,1682471587
lake city,30.1897,-82.6393,21.59,94,40,0.0,US,1682471235
una,20.8167,71.0333,26.17,57,0,1.2,IN,1682471028
ingeniero guillermo n. juarez,-23.9,-61.85,17.12,86,0,0.92,AR,1682471588
crane,31.3974,-102.3501,26.47,17,0,3.37,US,1682471136
necochea,-38.5473,-58.7368,15.34,90,34,3.56,AR,1682471510
velingrad,42.0272,23.9957,8.82,95,99,1.47,BG,1682471589
jiwani,25.05,61.7417,24.52,62,12,0.69,PK,1682471589
rocky mountain house,52.3668,-114.9188,7.63,70,94,4.48,CA,1682471590
east tamworth,-31.0894,150.9436,19.77,52,10,4.12,AU,1682471590
ingeniero jacobacci,-41.3427,-69.5448,10.88,65,100,5.79,AR,1682471590
souillac,-20.5167,57.5167,25.06,84,0,1.79,MU,1682471591
lhasa,29.65,91.1,3.89,68,17,1.05,CN,1682471591
ballenstedt,51.7167,11.2333,2.73,91,8,3.26,DE,1682471592
igrim,63.1906,64.4162,-4.52,95,38,1.33,RU,1682471592
san julian,21.0167,-102.1667,22.47,9,100,4.9,MX,1682471592
malango,-2.9627,119.9001,25.33,76,76,0.69,ID,1682471317
manokwari,-0.8667,134.0833,27.5,74,99,0.87,ID,1682471593
balkanabat,39.5108,54.3671,18.76,59,100,1.85,TM,1682471593
santarem,-2.4431,-54.7083,25.07,94,75,1.54,BR,1682471594
tarko-sale,64.9225,77.785,-5.66,93,35,2.99,RU,1682471595
chos malal,-37.3781,-70.2709,13.1,38,13,2.13,AR,1682471595
muli,2.9167,73.5667,28.71,74,14,4.16,MV,1682471595
auna,10.1881,4.7232,29.33,56,100,3.51,NG,1682471596
conception bay south,47.4999,-52.9981,1.91,96,100,6.54,CA,1682471596
praia da vitoria,38.7333,-27.0667,17.64,98,100,5.52,PT,1682471441
hadibu,12.65,54.0333,27.11,75,5,3.36,YE,1682471597
maebaru-chuo,33.55,130.2,17.62,67,44,5.42,JP,1682471597
grand rapids,42.9634,-85.6681,7.49,62,75,4.63,US,1682471285
byron bay,-28.65,153.6167,19.84,65,92,6.44,AU,1682471598
axim,4.8699,-2.2405,26.74,86,100,3.58,GH,1682471598
labasa,-16.4167,179.3833,30.12,58,45,3.93,FJ,1682471598
yerofey pavlovich,53.9667,121.9667,2.71,36,100,2.3,RU,1682471600
quelimane,-17.8786,36.8883,22.1,77,57,0.96,MZ,1682471600
jeddah,21.5169,39.2192,26.92,74,0,3.09,SA,1682471402
mbala,-8.8402,31.3659,16.31,91,58,4.44,ZM,1682471601
opuwo,-18.0607,13.84,21.21,58,4,1.83,NA,1682471601
khilok,51.3674,110.4676,9.57,25,16,0.7,RU,1682471602
nyurba,63.2842,118.3319,-1.73,92,100,0.56,RU,1682471602
dubbo,-32.25,148.6167,20.07,52,0,5.14,AU,1682471603
lodja,-3.4833,23.4333,20.96,94,100,0.21,CD,1682471603
sanluri,39.5611,8.8994,15.27,94,100,2.0,IT,1682471603
kuanda,56.3161,116.0806,-0.7,55,46,0.24,RU,1682471604
macau,22.2006,113.5461,19.89,77,40,8.23,MO,1682471604
newman,37.3138,-121.0208,27.99,28,6,2.68,US,1682471340
brunswick,41.2381,-81.8418,8.28,82,100,3.09,US,1682471429
borba,-4.3878,-59.5939,23.3,97,100,1.18,BR,1682471605
guantanamo,20.1444,-75.2092,26.76,82,43,1.28,CU,1682471605
lagoa da prata,-20.0225,-45.5436,18.99,78,1,1.73,BR,1682471606
santa elena de uairen,4.6167,-61.1333,18.19,95,100,1.34,VE,1682471606
malanje,-9.5402,16.341,17.56,98,99,0.84,AO,1682471606
port-cartier,50.0334,-66.8654,3.75,79,21,2.64,CA,1682471607
yelizovo,53.1873,158.3805,6.08,45,75,7.15,RU,1682471607
sabang,5.8933,95.3214,28.95,72,99,6.26,ID,1682471607
gamba,-2.65,10.0,23.95,93,100,2.15,GA,1682471608
amarillo,35.222,-101.8313,17.88,55,0,10.29,US,1682471305
meadow lakes,61.6247,-149.6011,6.69,55,0,5.66,US,1682471608
san felipe,10.3399,-68.7425,22.57,85,42,0.91,VE,1682471609
esquel,-42.9,-71.3167,8.89,93,100,1.3,AR,1682471609
sunan,39.1983,125.69,9.32,48,6,5.61,KP,1682471610
nova olimpia,-14.7972,-57.2881,23.07,91,15,0.58,BR,1682471610
kushalgarh,23.199,74.4507,27.56,26,98,4.48,IN,1682471611
klaksvik,62.2266,-6.589,1.51,60,100,9.01,FO,1682471611
sant lluis,39.8526,4.2594,16.22,94,20,4.63,ES,1682471611
tromso,69.6496,18.957,-0.35,59,100,2.06,NO,1682471612
mirny,62.5353,113.9611,-2.09,79,100,1.79,RU,1682471345
hilo,19.7297,-155.09,27.85,64,0,5.66,US,1682471435
atherton,53.5237,-2.4935,6.23,77,100,0.89,GB,1682471323
santo antonio do ica,-3.1022,-67.9397,22.99,94,72,1.27,BR,1682471485
tambura,5.6,27.4667,20.51,98,100,3.82,SS,1682471613
seaside,36.6111,-121.8516,18.29,77,0,2.57,US,1682471613
fortuna,40.5982,-124.1573,16.63,74,10,0.89,US,1682471352
crato,-7.2342,-39.4094,22.33,78,100,2.17,BR,1682471614
koungheul,13.9833,-14.8,27.74,32,5,5.53,SN,1682471614
vallenar,-28.5708,-70.7581,18.75,64,2,0.71,CL,1682471615
kourou,5.1552,-52.6478,24.03,91,100,2.97,GF,1682471615
demba,-5.51,22.2667,20.54,94,12,0.39,CD,1682471615
tres arroyos,-38.3739,-60.2798,16.58,60,100,3.03,AR,1682471616
dalmatovo,56.26,62.9362,11.47,63,100,2.87,RU,1682471616
arta,39.1606,20.9853,15.8,87,99,1.74,GR,1682471616
konakovo,56.7,36.7667,10.26,87,100,1.37,RU,1682471617
queenstown,-31.8976,26.8753,11.8,91,12,0.85,ZA,1682471617
dauphin,51.1494,-100.0502,7.02,58,100,3.08,CA,1682471528
cherdyn',60.403,56.4787,8.4,73,100,2.01,RU,1682471618
enniscorthy,52.5008,-6.5578,9.15,87,100,2.57,IE,1682471618
bocas del toro,9.3333,-82.25,26.53,75,50,1.43,PA,1682471077
tangalle,6.024,80.7911,25.09,88,96,1.7,LK,1682471619
petauke,-14.2426,31.3253,15.3,76,10,2.79,ZM,1682471619
tupiza,-21.45,-65.7167,14.21,19,0,1.71,BO,1682471620
nouadhibou,20.931,-17.0347,18.99,88,75,7.2,MR,1682471620
